{
  "cities": [
    {
      "id": "73e5",
      "cityName": "Perunavalur",
      "country": "India",
      "emoji": "ðŸ‡®ðŸ‡³",
      "date": "2024-11-28T14:36:05.535Z",
      "notes": "",
      "position": {
        "lat": "10.093177512942125",
        "lng": "79.01032447814943"
      }
    },
    {
      "id": "4506",
      "cityName": "Arantangi",
      "country": "India",
      "emoji": "ðŸ‡®ðŸ‡³",
      "date": "2024-12-03T03:22:56.840Z",
      "notes": "",
      "position": {
        "lat": "10.16761547789759",
        "lng": "78.99238586425783"
      }
    },
    {
      "id": "c26a",
      "cityName": "Anchetti",
      "country": "India",
      "emoji": "ðŸ‡®ðŸ‡³",
      "date": "2024-12-03T06:40:29.420Z",
      "notes": "",
      "position": {
        "lat": "12.340001834116316",
        "lng": "77.73925781250001"
      }
    },
    {
      "id": "7848",
      "cityName": "Chennai",
      "country": "India",
      "emoji": "ðŸ‡®ðŸ‡³",
      "date": "2024-12-23T06:23:17.000Z",
      "notes": "",
      "position": {
        "lat": "13.095575452646322",
        "lng": "80.28259277343751"
      }
    },
    {
      "id": "586e",
      "cityName": "Davangere",
      "country": "India",
      "emoji": "ðŸ‡®ðŸ‡³",
      "date": "2024-12-28T07:01:27.893Z",
      "notes": "",
      "position": {
        "lat": "14.393618901340293",
        "lng": "75.84960937500001"
      }
    }
  ]
}